{
"type": "FeatureCollection",
"name": "postcode_160",
"crs": { "type": "name", "properties": { "name": "urn:ogc:def:crs:OGC:1.3:CRS84" } },
"features": [
{ "type": "Feature", "properties": { "Name": "Sohland a.d. Spree - Taubenheim", "Postcode": "2689", "City": "Sohland an der Spre", "Country": "Germany", "path": "file:\/\/\/E:\/david\/GIS\/discard.csv?type=csv&maxFields=10000&detectTypes=yes&xField=lng&yField=lat&crs=EPSG:4326&spatialIndex=no&subsetIndex=no&watchFile=no" }, "geometry": { "type": "Point", "coordinates": [ 14.442, 51.0533 ] } },
{ "type": "Feature", "properties": { "Name": "GroBostheim", "Postcode": "63762", "City": "Großostheim", "Country": "Germany", "path": "file:\/\/\/E:\/david\/GIS\/discard.csv?type=csv&maxFields=10000&detectTypes=yes&xField=lng&yField=lat&crs=EPSG:4326&spatialIndex=no&subsetIndex=no&watchFile=no" }, "geometry": { "type": "Point", "coordinates": [ 9.0586, 49.9281 ] } },
{ "type": "Feature", "properties": { "Name": "DOsseldo", "Postcode": "40549", "City": "D�sseldorf", "Country": "Germany", "path": "file:\/\/\/E:\/david\/GIS\/discard.csv?type=csv&maxFields=10000&detectTypes=yes&xField=lng&yField=lat&crs=EPSG:4326&spatialIndex=no&subsetIndex=no&watchFile=no" }, "geometry": { "type": "Point", "coordinates": [ 6.6742, 51.2386 ] } },
{ "type": "Feature", "properties": { "Name": "Si deren", "Postcode": "3618", "City": "Si deren", "Country": "Switzerland", "path": "file:\/\/\/E:\/david\/GIS\/discard.csv?type=csv&maxFields=10000&detectTypes=yes&xField=lng&yField=lat&crs=EPSG:4326&spatialIndex=no&subsetIndex=no&watchFile=no" }, "geometry": { "type": "Point", "coordinates": [ 7.752, 46.817428 ] } },
{ "type": "Feature", "properties": { "Name": "Gebertingen", "Postcode": "8725", "City": "Ernetschwil", "Country": "Switzerland", "path": "file:\/\/\/E:\/david\/GIS\/discard.csv?type=csv&maxFields=10000&detectTypes=yes&xField=lng&yField=lat&crs=EPSG:4326&spatialIndex=no&subsetIndex=no&watchFile=no" }, "geometry": { "type": "Point", "coordinates": [ 8.9979, 47.2527 ] } },
{ "type": "Feature", "properties": { "Name": "Davos Platz", "Postcode": "7270", "City": "Pattigue\/Davos", "Country": "Switzerland", "path": "file:\/\/\/E:\/david\/GIS\/discard.csv?type=csv&maxFields=10000&detectTypes=yes&xField=lng&yField=lat&crs=EPSG:4326&spatialIndex=no&subsetIndex=no&watchFile=no" }, "geometry": { "type": "Point", "coordinates": [ 9.8074, 46.7948 ] } },
{ "type": "Feature", "properties": { "Name": "Schaan", "Postcode": "9494", "City": "Liechtenstein", "Country": "Switzerland", "path": "file:\/\/\/E:\/david\/GIS\/discard.csv?type=csv&maxFields=10000&detectTypes=yes&xField=lng&yField=lat&crs=EPSG:4326&spatialIndex=no&subsetIndex=no&watchFile=no" }, "geometry": { "type": "Point", "coordinates": [ 9.5106, 47.1672 ] } },
{ "type": "Feature", "properties": { "Name": "St. Leonhardt", "Postcode": "39015", "City": "Passeier Valley", "Country": "Italy", "path": "file:\/\/\/E:\/david\/GIS\/discard.csv?type=csv&maxFields=10000&detectTypes=yes&xField=lng&yField=lat&crs=EPSG:4326&spatialIndex=no&subsetIndex=no&watchFile=no" }, "geometry": { "type": "Point", "coordinates": [ 11.2374, 46.8122 ] } },
{ "type": "Feature", "properties": { "Name": "Lipovnik", "Postcode": "4942", "City": "Rož?ava", "Country": "Slovakia", "path": "file:\/\/\/E:\/david\/GIS\/discard.csv?type=csv&maxFields=10000&detectTypes=yes&xField=lng&yField=lat&crs=EPSG:4326&spatialIndex=no&subsetIndex=no&watchFile=no" }, "geometry": { "type": "Point", "coordinates": [ 17.9674, 48.5745 ] } },
{ "type": "Feature", "properties": { "Name": "Agulo (La Gomera)", "Postcode": "38830", "City": "La Gomera", "Country": "Spain", "path": "file:\/\/\/E:\/david\/GIS\/discard.csv?type=csv&maxFields=10000&detectTypes=yes&xField=lng&yField=lat&crs=EPSG:4326&spatialIndex=no&subsetIndex=no&watchFile=no" }, "geometry": { "type": "Point", "coordinates": [ -17.1989, 28.1894 ] } },
{ "type": "Feature", "properties": { "Name": "Raguhn-Jegnitz", "Postcode": "6800", "City": "Anhalt-Bitterfeld", "Country": "Germany", "path": "file:\/\/\/E:\/david\/GIS\/discard.csv?type=csv&maxFields=10000&detectTypes=yes&xField=lng&yField=lat&crs=EPSG:4326&spatialIndex=no&subsetIndex=no&watchFile=no" }, "geometry": { "type": "Point", "coordinates": [ 12.1773, 51.7303 ] } },
{ "type": "Feature", "properties": { "Name": "Bremen", "Postcode": "28203", "City": "Waldshut", "Country": "Germany", "path": "file:\/\/\/E:\/david\/GIS\/discard.csv?type=csv&maxFields=10000&detectTypes=yes&xField=lng&yField=lat&crs=EPSG:4326&spatialIndex=no&subsetIndex=no&watchFile=no" }, "geometry": { "type": "Point", "coordinates": [ 8.5962, 53.12016 ] } },
{ "type": "Feature", "properties": { "Name": "Saarlouis Osterreich", "Postcode": "66740", "City": "Saarland", "Country": "Germany", "path": "file:\/\/\/E:\/david\/GIS\/discard.csv?type=csv&maxFields=10000&detectTypes=yes&xField=lng&yField=lat&crs=EPSG:4326&spatialIndex=no&subsetIndex=no&watchFile=no" }, "geometry": { "type": "Point", "coordinates": [ 6.6752, 49.3113 ] } },
{ "type": "Feature", "properties": { "Name": "Aurach bei Kitzbuhl", "Postcode": "6370", "City": "Kitzbühel", "Country": "Austria", "path": "file:\/\/\/E:\/david\/GIS\/discard.csv?type=csv&maxFields=10000&detectTypes=yes&xField=lng&yField=lat&crs=EPSG:4326&spatialIndex=no&subsetIndex=no&watchFile=no" }, "geometry": { "type": "Point", "coordinates": [ 12.3932, 47.4048 ] } },
{ "type": "Feature", "properties": { "Name": "Barenwalde", "Postcode": "8147", "City": "Crinitzberg", "Country": "Germany", "path": "E:\/david\/GIS\/postcode_160.shp" }, "geometry": { "type": "Point", "coordinates": [ 12.526346589224907, 50.56240555 ] } },
{ "type": "Feature", "properties": { "Name": "Wedemark", "Postcode": "30900", "City": "Wedemark", "Country": "Germany", "path": "E:\/david\/GIS\/postcode_160.shp" }, "geometry": { "type": "Point", "coordinates": [ 9.773359639952538, 52.509502 ] } },
{ "type": "Feature", "properties": { "Name": "Prem", "Postcode": "86984", "City": "Prem", "Country": "Germany", "path": "E:\/david\/GIS\/postcode_160.shp" }, "geometry": { "type": "Point", "coordinates": [ 10.8032372, 47.6764804 ] } },
{ "type": "Feature", "properties": { "Name": "Ulm", "Postcode": "89079", "City": "Ulm", "Country": "Germany", "path": "E:\/david\/GIS\/postcode_160.shp" }, "geometry": { "type": "Point", "coordinates": [ 8.049676, 48.5789242 ] } },
{ "type": "Feature", "properties": { "Name": "Straubing", "Postcode": "94315", "City": "Straubing", "Country": "Germany", "path": "E:\/david\/GIS\/postcode_160.shp" }, "geometry": { "type": "Point", "coordinates": [ 12.572855714791107, 48.8850725 ] } },
{ "type": "Feature", "properties": { "Name": "Zeuthen", "Postcode": "15738", "City": "Zeuthen", "Country": "Germany", "path": "E:\/david\/GIS\/postcode_160.shp" }, "geometry": { "type": "Point", "coordinates": [ 13.627647, 52.3484435 ] } },
{ "type": "Feature", "properties": { "Name": "Hamburg", "Postcode": "22455", "City": "Hamburg", "Country": "Germany", "path": "E:\/david\/GIS\/postcode_160.shp" }, "geometry": { "type": "Point", "coordinates": [ 10.000654, 53.550341 ] } },
{ "type": "Feature", "properties": { "Name": "Stuttgart", "Postcode": "70327", "City": "Stuttgart", "Country": "Germany", "path": "E:\/david\/GIS\/postcode_160.shp" }, "geometry": { "type": "Point", "coordinates": [ 9.184643576522808, 48.84466415 ] } },
{ "type": "Feature", "properties": { "Name": "Lingen Baccum", "Postcode": "49811", "City": "Lingen", "Country": "Germany", "path": "E:\/david\/GIS\/postcode_160.shp" }, "geometry": { "type": "Point", "coordinates": [ 7.403704, 52.5134967 ] } },
{ "type": "Feature", "properties": { "Name": "Cadolzburg", "Postcode": "90556", "City": "Cadolzburg", "Country": "Germany", "path": "E:\/david\/GIS\/postcode_160.shp" }, "geometry": { "type": "Point", "coordinates": [ 10.8635692, 49.4605505 ] } },
{ "type": "Feature", "properties": { "Name": "Munchen", "Postcode": "81245", "City": "Munchen", "Country": "Germany", "path": "E:\/david\/GIS\/postcode_160.shp" }, "geometry": { "type": "Point", "coordinates": [ 11.5578513, 48.1174068 ] } },
{ "type": "Feature", "properties": { "Name": "Freital", "Postcode": "1705", "City": "Freital", "Country": "Germany", "path": "E:\/david\/GIS\/postcode_160.shp" }, "geometry": { "type": "Point", "coordinates": [ 13.662964, 51.0131739 ] } },
{ "type": "Feature", "properties": { "Name": "Julbach", "Postcode": "84387", "City": "Julbach", "Country": "Germany", "path": "E:\/david\/GIS\/postcode_160.shp" }, "geometry": { "type": "Point", "coordinates": [ 12.9578673, 48.2510152 ] } },
{ "type": "Feature", "properties": { "Name": "Finsterwalde", "Postcode": "3238", "City": "Finsterwalde", "Country": "Germany", "path": "E:\/david\/GIS\/postcode_160.shp" }, "geometry": { "type": "Point", "coordinates": [ 13.710383, 51.6369946 ] } },
{ "type": "Feature", "properties": { "Name": "Giessen", "Postcode": "35398", "City": "Giessen", "Country": "Germany", "path": "E:\/david\/GIS\/postcode_160.shp" }, "geometry": { "type": "Point", "coordinates": [ 8.6742306, 50.5862066 ] } },
{ "type": "Feature", "properties": { "Name": "Ludwigsfelde", "Postcode": "14974", "City": "Ludwigsfelde", "Country": "Germany", "path": "E:\/david\/GIS\/postcode_160.shp" }, "geometry": { "type": "Point", "coordinates": [ 13.25878550899612, 52.3073795 ] } },
{ "type": "Feature", "properties": { "Name": "Schwerte", "Postcode": "58239", "City": "Schwerte", "Country": "Germany", "path": "E:\/david\/GIS\/postcode_160.shp" }, "geometry": { "type": "Point", "coordinates": [ 7.5579236, 51.4563098 ] } },
{ "type": "Feature", "properties": { "Name": "Bad Sobernheim", "Postcode": "55566", "City": "Sobernheim", "Country": "Germany", "path": "E:\/david\/GIS\/postcode_160.shp" }, "geometry": { "type": "Point", "coordinates": [ 7.649863, 49.7829069 ] } },
{ "type": "Feature", "properties": { "Name": "Dresden", "Postcode": "1099", "City": "Dresden", "Country": "Germany", "path": "E:\/david\/GIS\/postcode_160.shp" }, "geometry": { "type": "Point", "coordinates": [ 13.7332405, 51.0397211 ] } },
{ "type": "Feature", "properties": { "Name": "Weinheim", "Postcode": "69469", "City": "Weinheim", "Country": "Germany", "path": "E:\/david\/GIS\/postcode_160.shp" }, "geometry": { "type": "Point", "coordinates": [ 8.6635497, 49.5682944 ] } },
{ "type": "Feature", "properties": { "Name": "Klingenberg", "Postcode": "63911", "City": "Klingenberg", "Country": "Germany", "path": "E:\/david\/GIS\/postcode_160.shp" }, "geometry": { "type": "Point", "coordinates": [ 13.5339466, 50.9189456 ] } },
{ "type": "Feature", "properties": { "Name": "Wirges", "Postcode": "56422", "City": "Wirges", "Country": "Germany", "path": "E:\/david\/GIS\/postcode_160.shp" }, "geometry": { "type": "Point", "coordinates": [ 7.7956173, 50.4700819 ] } },
{ "type": "Feature", "properties": { "Name": "Hamburg", "Postcode": "22145", "City": "Hamburg", "Country": "Germany", "path": "E:\/david\/GIS\/postcode_160.shp" }, "geometry": { "type": "Point", "coordinates": [ 10.000654, 53.550341 ] } },
{ "type": "Feature", "properties": { "Name": "Niedernhall", "Postcode": "74676", "City": "Niedernhall", "Country": "Germany", "path": "E:\/david\/GIS\/postcode_160.shp" }, "geometry": { "type": "Point", "coordinates": [ 9.613763714383058, 49.29442995 ] } },
{ "type": "Feature", "properties": { "Name": "Zwiefalten", "Postcode": "88529", "City": "Zwiefalten", "Country": "Germany", "path": "E:\/david\/GIS\/postcode_160.shp" }, "geometry": { "type": "Point", "coordinates": [ 9.4614966, 48.2331643 ] } },
{ "type": "Feature", "properties": { "Name": "Alkersleben", "Postcode": "88310", "City": "Ilm-Kreis", "Country": "Germany", "path": "E:\/david\/GIS\/postcode_160.shp" }, "geometry": { "type": "Point", "coordinates": [ 11.0412337, 50.8474366 ] } },
{ "type": "Feature", "properties": { "Name": "Suhl", "Postcode": "98527", "City": "Suhl", "Country": "Germany", "path": "E:\/david\/GIS\/postcode_160.shp" }, "geometry": { "type": "Point", "coordinates": [ 9.9788098, 50.9391391 ] } },
{ "type": "Feature", "properties": { "Name": "Plauen", "Postcode": "8525", "City": "Plauen", "Country": "Germany", "path": "E:\/david\/GIS\/postcode_160.shp" }, "geometry": { "type": "Point", "coordinates": [ 13.708137639507219, 51.026885 ] } },
{ "type": "Feature", "properties": { "Name": "Bruchsal", "Postcode": "76646", "City": "Bruchsal", "Country": "Germany", "path": "E:\/david\/GIS\/postcode_160.shp" }, "geometry": { "type": "Point", "coordinates": [ 8.5980244, 49.124118 ] } },
{ "type": "Feature", "properties": { "Name": "Gutersloh", "Postcode": "33330", "City": "Gutersloh", "Country": "Germany", "path": "E:\/david\/GIS\/postcode_160.shp" }, "geometry": { "type": "Point", "coordinates": [ 8.3782078, 51.9063997 ] } },
{ "type": "Feature", "properties": { "Name": "Neudenau", "Postcode": "74861", "City": "Heilbronn", "Country": "Germany", "path": "E:\/david\/GIS\/postcode_160.shp" }, "geometry": { "type": "Point", "coordinates": [ 9.2731888, 49.2940857 ] } },
{ "type": "Feature", "properties": { "Name": "Schaffhausen", "Postcode": null, "City": "Schaffhausen", "Country": "Germany", "path": "E:\/david\/GIS\/postcode_160.shp" }, "geometry": { "type": "Point", "coordinates": [ 6.8122973, 49.2549905 ] } },
{ "type": "Feature", "properties": { "Name": "Peccia", "Postcode": "6695", "City": "Lavizzara", "Country": "Switzerland", "path": "E:\/david\/GIS\/postcode_160.shp" }, "geometry": { "type": "Point", "coordinates": [ 8.6474578, 46.4071859 ] } },
{ "type": "Feature", "properties": { "Name": "Jouxtens-Mezery", "Postcode": "1008", "City": "Lausanne", "Country": "Switzerland", "path": "E:\/david\/GIS\/postcode_160.shp" }, "geometry": { "type": "Point", "coordinates": [ 6.5980688, 46.5532677 ] } },
{ "type": "Feature", "properties": { "Name": "Metzerlen", "Postcode": "4116", "City": "Dorneck", "Country": "Switzerland", "path": "E:\/david\/GIS\/postcode_160.shp" }, "geometry": { "type": "Point", "coordinates": [ 7.4658445, 47.4659714 ] } },
{ "type": "Feature", "properties": { "Name": "Stein am Rhein", "Postcode": "8260", "City": "Schaffhausen", "Country": "Switzerland", "path": "E:\/david\/GIS\/postcode_160.shp" }, "geometry": { "type": "Point", "coordinates": [ 8.8596823, 47.6597323 ] } },
{ "type": "Feature", "properties": { "Name": "Zurich", "Postcode": "8051", "City": "Zurich", "Country": "Switzerland", "path": "E:\/david\/GIS\/postcode_160.shp" }, "geometry": { "type": "Point", "coordinates": [ 8.5410422, 47.3744489 ] } },
{ "type": "Feature", "properties": { "Name": "Eichberg", "Postcode": "9453", "City": "Eichberg", "Country": "Switzerland", "path": "E:\/david\/GIS\/postcode_160.shp" }, "geometry": { "type": "Point", "coordinates": [ 8.167248, 47.1597393 ] } },
{ "type": "Feature", "properties": { "Name": "Erlenbach", "Postcode": "8703", "City": "Erlenbach", "Country": "Switzerland", "path": "E:\/david\/GIS\/postcode_160.shp" }, "geometry": { "type": "Point", "coordinates": [ 7.5533928, 46.6614834 ] } },
{ "type": "Feature", "properties": { "Name": "Ramsen", "Postcode": "8262", "City": "Ramsen", "Country": "Switzerland", "path": "E:\/david\/GIS\/postcode_160.shp" }, "geometry": { "type": "Point", "coordinates": [ 9.2537449, 47.3935561 ] } },
{ "type": "Feature", "properties": { "Name": "Lachen", "Postcode": "8853", "City": "March", "Country": "Switzerland", "path": "E:\/david\/GIS\/postcode_160.shp" }, "geometry": { "type": "Point", "coordinates": [ 8.8523833, 47.1923827 ] } },
{ "type": "Feature", "properties": { "Name": "Gosseldange", "Postcode": "7432", "City": "Lintgen", "Country": "Luxembourg", "path": "E:\/david\/GIS\/postcode_160.shp" }, "geometry": { "type": "Point", "coordinates": [ 6.1154456, 49.7241218 ] } },
{ "type": "Feature", "properties": { "Name": "Exmes", "Postcode": "61310", "City": "Exmes", "Country": "France", "path": "E:\/david\/GIS\/postcode_160.shp" }, "geometry": { "type": "Point", "coordinates": [ 0.2058528, 48.7887965 ] } },
{ "type": "Feature", "properties": { "Name": "Messini", "Postcode": "24200", "City": "Messenia", "Country": "Greece", "path": "E:\/david\/GIS\/postcode_160.shp" }, "geometry": { "type": "Point", "coordinates": [ 21.925956865972196, 37.0309471 ] } },
{ "type": "Feature", "properties": { "Name": "El Paso (La Palma)", "Postcode": "38750", "City": "La Palma", "Country": "Spain", "path": "E:\/david\/GIS\/postcode_160.shp" }, "geometry": { "type": "Point", "coordinates": [ -16.3705889, 28.3536488 ] } },
{ "type": "Feature", "properties": { "Name": "Sao Pedro de France", "Postcode": "3505-340", "City": "Viseu", "Country": "Portugal", "path": "E:\/david\/GIS\/postcode_160.shp" }, "geometry": { "type": "Point", "coordinates": [ -7.7900159, 40.7112706 ] } },
{ "type": "Feature", "properties": { "Name": "Tapsony", "Postcode": "8718", "City": "Somogy", "Country": "Hungary", "path": "E:\/david\/GIS\/postcode_160.shp" }, "geometry": { "type": "Point", "coordinates": [ 17.3354013, 46.4535213 ] } },
{ "type": "Feature", "properties": { "Name": "Davod", "Postcode": "6524", "City": "Bács-Kiskun", "Country": "Hungary", "path": "E:\/david\/GIS\/postcode_160.shp" }, "geometry": { "type": "Point", "coordinates": [ 18.9227327, 45.9964307 ] } },
{ "type": "Feature", "properties": { "Name": "Herrischried", "Postcode": "79737", "City": "Waldshut", "Country": "Germany", "path": "E:\/david\/GIS\/postcode_160.shp" }, "geometry": { "type": "Point", "coordinates": [ 8.0006455, 47.6665531 ] } },
{ "type": "Feature", "properties": { "Name": "Bernbeuren", "Postcode": "86975", "City": "Bavaria", "Country": "Germany", "path": "E:\/david\/GIS\/postcode_160.shp" }, "geometry": { "type": "Point", "coordinates": [ 10.7769144, 47.7376437 ] } },
{ "type": "Feature", "properties": { "Name": "Marl", "Postcode": "45768", "City": "Recklinghausen", "Country": "Germany", "path": "E:\/david\/GIS\/postcode_160.shp" }, "geometry": { "type": "Point", "coordinates": [ 7.0829054, 51.6485843 ] } },
{ "type": "Feature", "properties": { "Name": "Schechen", "Postcode": "83135", "City": "Rosenheim", "Country": "Germany", "path": "E:\/david\/GIS\/postcode_160.shp" }, "geometry": { "type": "Point", "coordinates": [ 12.1237123, 47.9292492 ] } },
{ "type": "Feature", "properties": { "Name": "Soyen", "Postcode": "83564", "City": "Rosenheim", "Country": "Germany", "path": "E:\/david\/GIS\/postcode_160.shp" }, "geometry": { "type": "Point", "coordinates": [ 12.2113356, 48.1065973 ] } },
{ "type": "Feature", "properties": { "Name": "Wangels", "Postcode": "23758", "City": "Ostholstein", "Country": "Germany", "path": "E:\/david\/GIS\/postcode_160.shp" }, "geometry": { "type": "Point", "coordinates": [ 10.7663663, 54.2733206 ] } },
{ "type": "Feature", "properties": { "Name": "Berching", "Postcode": "92334", "City": "Neumarkt", "Country": "Germany", "path": "E:\/david\/GIS\/postcode_160.shp" }, "geometry": { "type": "Point", "coordinates": [ 11.4397894, 49.1062614 ] } },
{ "type": "Feature", "properties": { "Name": "Plessa", "Postcode": "4928", "City": "Elbe-Elster", "Country": "Germany", "path": "E:\/david\/GIS\/postcode_160.shp" }, "geometry": { "type": "Point", "coordinates": [ 13.6221417, 51.4660423 ] } },
{ "type": "Feature", "properties": { "Name": "Oberkramer", "Postcode": "16727", "City": "Oberhavel", "Country": "Germany", "path": "E:\/david\/GIS\/postcode_160.shp" }, "geometry": { "type": "Point", "coordinates": [ 13.1099284, 52.7079067 ] } },
{ "type": "Feature", "properties": { "Name": "Schwarzach", "Postcode": "94374", "City": "Neckar-Odenwald-Kreis", "Country": "Germany", "path": "E:\/david\/GIS\/postcode_160.shp" }, "geometry": { "type": "Point", "coordinates": [ 8.9891492, 49.3773996 ] } },
{ "type": "Feature", "properties": { "Name": "Balgheim", "Postcode": "78582", "City": "Tuttlingen", "Country": "Germany", "path": "E:\/david\/GIS\/postcode_160.shp" }, "geometry": { "type": "Point", "coordinates": [ 8.7646788, 48.0665256 ] } },
{ "type": "Feature", "properties": { "Name": "Berlin", "Postcode": "12163", "City": "Berlin", "Country": "Germany", "path": "E:\/david\/GIS\/postcode_160.shp" }, "geometry": { "type": "Point", "coordinates": [ 13.3888599, 52.5170365 ] } },
{ "type": "Feature", "properties": { "Name": "Heeslingen", "Postcode": "27404", "City": "Rotenburg", "Country": "Germany", "path": "E:\/david\/GIS\/postcode_160.shp" }, "geometry": { "type": "Point", "coordinates": [ 9.3374117, 53.3165879 ] } },
{ "type": "Feature", "properties": { "Name": "Schwarzach", "Postcode": "94374", "City": "Neckar-Odenwald-Kreis", "Country": "Germany", "path": "E:\/david\/GIS\/postcode_160.shp" }, "geometry": { "type": "Point", "coordinates": [ 8.9891492, 49.3773996 ] } },
{ "type": "Feature", "properties": { "Name": "Lauterhofen", "Postcode": "92283", "City": "Neumarkt", "Country": "Germany", "path": "E:\/david\/GIS\/postcode_160.shp" }, "geometry": { "type": "Point", "coordinates": [ 11.6039669, 49.368761 ] } },
{ "type": "Feature", "properties": { "Name": "Bad Homburg", "Postcode": "61352", "City": "Hochtaunuskreis", "Country": "Germany", "path": "E:\/david\/GIS\/postcode_160.shp" }, "geometry": { "type": "Point", "coordinates": [ 8.6287451, 50.2227094 ] } },
{ "type": "Feature", "properties": { "Name": "Wandlitz", "Postcode": "16348", "City": "Barnim", "Country": "Germany", "path": "E:\/david\/GIS\/postcode_160.shp" }, "geometry": { "type": "Point", "coordinates": [ 13.4513345, 52.7536782 ] } },
{ "type": "Feature", "properties": { "Name": "Weiz", "Postcode": "8160", "City": "Styria", "Country": "Austria", "path": "E:\/david\/GIS\/postcode_160.shp" }, "geometry": { "type": "Point", "coordinates": [ 15.6221694, 47.2174206 ] } },
{ "type": "Feature", "properties": { "Name": "Wels", "Postcode": "4600", "City": "Upper Austria", "Country": "Austria", "path": "E:\/david\/GIS\/postcode_160.shp" }, "geometry": { "type": "Point", "coordinates": [ 14.0243752, 48.1565472 ] } },
{ "type": "Feature", "properties": { "Name": "Weiten", "Postcode": "3653", "City": "Melk", "Country": "Austria", "path": "E:\/david\/GIS\/postcode_160.shp" }, "geometry": { "type": "Point", "coordinates": [ 15.2579794030008, 48.2952394 ] } },
{ "type": "Feature", "properties": { "Name": "Salzburg", "Postcode": "5020", "City": "Salzburg", "Country": "Austria", "path": "E:\/david\/GIS\/postcode_160.shp" }, "geometry": { "type": "Point", "coordinates": [ 13.0464806, 47.7981346 ] } },
{ "type": "Feature", "properties": { "Name": "Salzburg", "Postcode": "5020", "City": "Salzburg", "Country": "Austria", "path": "E:\/david\/GIS\/postcode_160.shp" }, "geometry": { "type": "Point", "coordinates": [ 13.0464806, 47.7981346 ] } },
{ "type": "Feature", "properties": { "Name": "Deutsch Goritz", "Postcode": "8483", "City": "Südoststeiermark", "Country": "Austria", "path": "E:\/david\/GIS\/postcode_160.shp" }, "geometry": { "type": "Point", "coordinates": [ 15.8304298, 46.7517263 ] } },
{ "type": "Feature", "properties": { "Name": "Waldhausen", "Postcode": "4391", "City": "Perg", "Country": "Austria", "path": "E:\/david\/GIS\/postcode_160.shp" }, "geometry": { "type": "Point", "coordinates": [ 14.948309, 48.2733549 ] } },
{ "type": "Feature", "properties": { "Name": "Aurach am Hongar", "Postcode": "4861", "City": "Vöcklabruck", "Country": "Austria", "path": "E:\/david\/GIS\/postcode_160.shp" }, "geometry": { "type": "Point", "coordinates": [ 13.6727183, 47.952313 ] } },
{ "type": "Feature", "properties": { "Name": "Golling an der Salzach", "Postcode": "5440", "City": "Hallein", "Country": "Austria", "path": "E:\/david\/GIS\/postcode_160.shp" }, "geometry": { "type": "Point", "coordinates": [ 13.1674472, 47.5967154 ] } },
{ "type": "Feature", "properties": { "Name": "Wien", "Postcode": "1010", "City": "Vienna", "Country": "Austria", "path": "E:\/david\/GIS\/postcode_160.shp" }, "geometry": { "type": "Point", "coordinates": [ 16.392253133080995, 48.229744398511052 ] } },
{ "type": "Feature", "properties": { "Name": "Reichenau a.d.Rax", "Postcode": "2651", "City": "Reichenau a.d.Rax", "Country": "Austria", "path": "E:\/david\/GIS\/postcode_160.shp" }, "geometry": { "type": "Point", "coordinates": [ 15.838266, 47.6975452 ] } },
{ "type": "Feature", "properties": { "Name": "Seeboden", "Postcode": "9871", "City": "Carinthia", "Country": "Austria", "path": "E:\/david\/GIS\/postcode_160.shp" }, "geometry": { "type": "Point", "coordinates": [ 13.5186548, 46.8190736 ] } },
{ "type": "Feature", "properties": { "Name": "Pressbaum", "Postcode": "3021", "City": "St. Pölten-Land", "Country": "Austria", "path": "E:\/david\/GIS\/postcode_160.shp" }, "geometry": { "type": "Point", "coordinates": [ 16.077089, 48.1792064 ] } },
{ "type": "Feature", "properties": { "Name": "Premstatten", "Postcode": "8141", "City": "Styria", "Country": "Austria", "path": "E:\/david\/GIS\/postcode_160.shp" }, "geometry": { "type": "Point", "coordinates": [ 15.412252425986534, 46.96298025 ] } },
{ "type": "Feature", "properties": { "Name": "Velden", "Postcode": "9220", "City": "Carinthia", "Country": "Austria", "path": "E:\/david\/GIS\/postcode_160.shp" }, "geometry": { "type": "Point", "coordinates": [ 14.0443204, 46.611876 ] } }
]
}
